[
    {
        "coordinates": [
            67.709953,
            33.93911
        ],
        "country": "Afghanistan",
        "name": "Afghanistan",
        "website": ""
    },
    {
        "coordinates": [
            69.183272,
            34.534662
        ],
        "country": "Afghanistan",
        "name": "American Medical Centre",
        "website": ""
    },
    {
        "coordinates": [
            69.168998,
            34.533904
        ],
        "country": "Afghanistan",
        "name": "IOM Kabul",
        "website": ""
    },
    {
        "coordinates": [
            20.168331,
            41.153332
        ],
        "country": "Albania",
        "name": "Albania",
        "website": ""
    },
    {
        "coordinates": [
            20.168331,
            41.153332
        ],
        "country": "Albania",
        "name": "VFS Global \u2013 Tirana",
        "website": "<div class='ExternalClassFB4933F912AC4703B2479222458DF44D'><p>See \n      <a class='external' href='https&#58;//www.vfsglobal.com/en/individuals/index.html'>VFS Global</a><br></p></div>"
    },
    {
        "coordinates": [
            19.829129,
            41.332875
        ],
        "country": "Albania",
        "name": "ABC Health Center",
        "website": ""
    },
    {
        "coordinates": [
            19.80591,
            41.332519
        ],
        "country": "Albania",
        "name": "Tirana Panel Clinic",
        "website": "<div class='ExternalClass2AFE32F79A734A8B86ADDBFD20B674E5'><p>\u200b<a href='http&#58;//www.tiranapanelclinic.com/'>www.tiranapanelclinic.com</a></p></div>"
    },
    {
        "coordinates": [
            19.785565,
            41.356931
        ],
        "country": "Albania",
        "name": "Police check - Albania",
        "website": ""
    },
    {
        "coordinates": [
            1.659626,
            28.033886
        ],
        "country": "Algeria",
        "name": "Algeria",
        "website": ""
    },
    {
        "coordinates": [
            1.659626,
            28.033886
        ],
        "country": "Algeria",
        "name": "VFS Global - Algiers",
        "website": "<div class='ExternalClass5B8D0BE5CB00483EB640E0CE242996DB'><p>See \n      <a class='external' href='https&#58;//www.vfsglobal.com/Australia/Algeria/'>VFS Global</a></p></div>"
    },
    {
        "coordinates": [
            3.059351,
            36.743516
        ],
        "country": "Algeria",
        "name": "Clinique Diar Saada",
        "website": ""
    },
    {
        "coordinates": [
            3.030995,
            36.769009
        ],
        "country": "Algeria",
        "name": "Police check - Algeria",
        "website": ""
    },
    {
        "coordinates": [
            -170.132217,
            -14.270972
        ],
        "country": "American Samoa",
        "name": "American Samoa",
        "website": ""
    },
    {
        "coordinates": [
            1,
            1
        ],
        "country": "American Samoa",
        "name": "No panel Physicians",
        "website": ""
    },
    {
        "coordinates": [
            1.521801,
            42.506285
        ],
        "country": "Andorra",
        "name": "Andorra",
        "website": ""
    },
    {
        "coordinates": [
            1.521801,
            42.506285
        ],
        "country": "Andorra",
        "name": "No panel physician",
        "website": ""
    },
    {
        "coordinates": [
            1.521835,
            42.506317
        ],
        "country": "Andorra",
        "name": "Police check - Andorra",
        "website": "<div class='ExternalClass1E0C052F53FF4896991EF3D5D218D0EB'>\n   \u200b<a class='external' href='http&#58;//www.justicia.ad/'>http&#58;//www.justicia.ad</a>\n</div>"
    },
    {
        "coordinates": [
            17.8738869,
            -11.202692
        ],
        "country": "Angola",
        "name": "Angola",
        "website": ""
    },
    {
        "coordinates": [
            17.873887,
            -11.20269
        ],
        "country": "Angola",
        "name": "No panel physicians",
        "website": ""
    },
    {
        "coordinates": [
            13.189075,
            -8.913969
        ],
        "country": "Angola",
        "name": "Police check - Angola",
        "website": ""
    },
    {
        "coordinates": [
            -63.068615,
            18.220554
        ],
        "country": "Anguilla",
        "name": "Anguilla",
        "website": ""
    },
    {
        "coordinates": [
            -63.068615,
            18.220554
        ],
        "country": "Anguilla",
        "name": "No panel physician",
        "website": ""
    },
    {
        "coordinates": [
            -63.057441,
            18.214813
        ],
        "country": "Anguilla",
        "name": "Police check - Anguilla",
        "website": ""
    },
    {
        "coordinates": [
            -61.7964279,
            17.060816
        ],
        "country": "Antigua and Barbuda",
        "name": "Antigua and Barbuda",
        "website": ""
    },
    {
        "coordinates": [
            -61.7964279,
            17.060816
        ],
        "country": "Antigua and Barbuda",
        "name": "No panel physician",
        "website": ""
    },
    {
        "coordinates": [
            -61.830837,
            17.111372
        ],
        "country": "Antigua and Barbuda",
        "name": "Police check - Antigua and Barbuda",
        "website": ""
    },
    {
        "coordinates": [
            -58.399556,
            -34.618157
        ],
        "country": "Argentina",
        "name": "Argentina",
        "website": ""
    },
    {
        "coordinates": [
            -58.439886,
            -34.588472
        ],
        "country": "Argentina",
        "name": "Dr Jorge Lantos Medical Office",
        "website": ""
    },
    {
        "coordinates": [
            -58.381559,
            -34.603684
        ],
        "country": "Argentina",
        "name": "Dr Raul M Kelly Clinic",
        "website": ""
    },
    {
        "coordinates": [
            -64.200184,
            -31.451088
        ],
        "country": "Argentina",
        "name": "Instituto Oulton",
        "website": ""
    },
    {
        "coordinates": [
            -68.846778,
            -32.90585
        ],
        "country": "Argentina",
        "name": "Arbesu Hematologia",
        "website": ""
    },
    {
        "coordinates": [
            -58.614108,
            -34.649593
        ],
        "country": "Argentina",
        "name": "Police check - Argentina",
        "website": "<div class='ExternalClass138573D1702F40B7B5274AEAA07BB1B9'>\n   <a class='external' href='http&#58;//www.dnrec.jus.gov.ar/'>http&#58;//www.dnrec.jus.gov.ar/</a>\n</div>"
    },
    {
        "coordinates": [
            45.0381889999,
            40.069099
        ],
        "country": "Armenia",
        "name": "Armenia",
        "website": ""
    },
    {
        "coordinates": [
            44.516122,
            40.148957
        ],
        "country": "Armenia",
        "name": "YSMU Muratsan Hospital Travel Doc Clinic",
        "website": ""
    },
    {
        "coordinates": [
            44.510305,
            40.176837
        ],
        "country": "Armenia",
        "name": "Police check - Armenia",
        "website": "<div class='ExternalClass2776D8AACDFC4527838529CCBCA0CC4B'>\n   <a class='external' href='https&#58;//www.mfa.am/en/criminal-record-certificate/'>https&#58;//www.mfa.am/en/criminal-record-certificate/</a>\n</div>"
    },
    {
        "coordinates": [
            -69.968338,
            12.52111
        ],
        "country": "Aruba",
        "name": "Aruba",
        "website": ""
    },
    {
        "coordinates": [
            69.9683,
            12.5211
        ],
        "country": "Aruba",
        "name": "No panel physicians",
        "website": ""
    },
    {
        "coordinates": [
            149.132058,
            -35.275452
        ],
        "country": "Australia",
        "name": "Citizenship test centre - Canberra",
        "website": ""
    },
    {
        "coordinates": [
            146.923608,
            -36.076955
        ],
        "country": "Australia",
        "name": "Citizenship test centre - Albury ",
        "website": ""
    },
    {
        "coordinates": [
            150.89615,
            -34.37017
        ],
        "country": "Australia",
        "name": "Citizenship test centre - Corrimal",
        "website": ""
    },
    {
        "coordinates": [
            146.045778,
            -34.288907
        ],
        "country": "Australia",
        "name": "Citizenship test centre - Griffith",
        "website": ""
    },
    {
        "coordinates": [
            151.76913,
            -32.928683
        ],
        "country": "Australia",
        "name": "Citizenship test centre - Newcastle",
        "website": ""
    },
    {
        "coordinates": [
            149.097999,
            -33.284858
        ],
        "country": "Australia",
        "name": "Citizenship test centre - Orange",
        "website": ""
    },
    {
        "coordinates": [
            151.005021,
            -33.819279
        ],
        "country": "Australia",
        "name": "Citizenship test centre - Parramatta",
        "website": ""
    },
    {
        "coordinates": [
            152.906594,
            -31.429599
        ],
        "country": "Australia",
        "name": "Citizenship test centre - Port Macquarie ",
        "website": ""
    },
    {
        "coordinates": [
            151.203806,
            -33.885004
        ],
        "country": "Australia",
        "name": "Citizenship test centre - Sydney",
        "website": ""
    },
    {
        "coordinates": [
            150.926755,
            -31.088286
        ],
        "country": "Australia",
        "name": "Citizenship test centre - Tamworth",
        "website": ""
    },
    {
        "coordinates": [
            153.118738,
            -30.296793
        ],
        "country": "Australia",
        "name": "Citizenship test centre - Coffs Harbour",
        "website": ""
    },
    {
        "coordinates": [
            153.54253,
            -28.20013
        ],
        "country": "Australia",
        "name": "Citizenship test centre - Tweed Heads South ",
        "website": ""
    },
    {
        "coordinates": [
            147.369164,
            -35.111533
        ],
        "country": "Australia",
        "name": "Citizenship test centre - Wagga Wagga",
        "website": ""
    },
    {
        "coordinates": [
            133.8804172,
            -23.695861
        ],
        "country": "Australia",
        "name": "Citizenship test centre - Alice Springs",
        "website": ""
    },
    {
        "coordinates": [
            130.84242,
            -12.461425
        ],
        "country": "Australia",
        "name": "Citizenship test centre - Darwin",
        "website": ""
    },
    {
        "coordinates": [
            153.0283252,
            -27.466196
        ],
        "country": "Australia",
        "name": "Citizenship test centre - Brisbane",
        "website": ""
    },
    {
        "coordinates": [
            153.131953,
            -26.699486
        ],
        "country": "Australia",
        "name": "Citizenship test centre - Kawana Waters ",
        "website": ""
    },
    {
        "coordinates": [
            149.157999,
            -21.122408
        ],
        "country": "Australia",
        "name": "Citizenship test centre - Mackay",
        "website": ""
    },
    {
        "coordinates": [
            139.490975,
            -20.724926
        ],
        "country": "Australia",
        "name": "Citizenship test centre - Mount Isa",
        "website": ""
    },
    {
        "coordinates": [
            150.523314,
            -23.361773
        ],
        "country": "Australia",
        "name": "Citizenship test centre - Rockhampton North",
        "website": ""
    },
    {
        "coordinates": [
            152.3541862,
            -24.8662757
        ],
        "country": "Australia",
        "name": "Citizenship test centre - Bundaberg",
        "website": ""
    },
    {
        "coordinates": [
            145.773401,
            -16.927451
        ],
        "country": "Australia",
        "name": "Citizenship test centre - Cairns",
        "website": ""
    },
    {
        "coordinates": [
            142.220683,
            -10.583062
        ],
        "country": "Australia",
        "name": "Citizenship test centre - Thursday Island",
        "website": ""
    },
    {
        "coordinates": [
            146.725402,
            -19.318022
        ],
        "country": "Australia",
        "name": "Citizenship test centre - Townsville",
        "website": ""
    },
    {
        "coordinates": [
            151.956466,
            -27.560424
        ],
        "country": "Australia",
        "name": "Citizenship test centre - Toowoomba",
        "website": ""
    },
    {
        "coordinates": [
            138.596691,
            -34.927092
        ],
        "country": "Australia",
        "name": "Citizenship test centre - Adelaide",
        "website": ""
    },
    {
        "coordinates": [
            137.761252,
            -32.490839
        ],
        "country": "Australia",
        "name": "Citizenship test centre - Port Augusta",
        "website": ""
    },
    {
        "coordinates": [
            147.325511,
            -42.885525
        ],
        "country": "Australia",
        "name": "Citizenship test centre - Hobart",
        "website": ""
    },
    {
        "coordinates": [
            147.1405433,
            -41.4313109
        ],
        "country": "Australia",
        "name": "Citizenship test centre - Launceston",
        "website": ""
    },
    {
        "coordinates": [
            143.8586511,
            -37.56334
        ],
        "country": "Australia",
        "name": "Citizenship test centre - Ballarat",
        "website": ""
    },
    {
        "coordinates": [
            144.282755,
            -36.75934
        ],
        "country": "Australia",
        "name": "Citizenship test centre - Bendigo",
        "website": ""
    },
    {
        "coordinates": [
            144.9715668,
            -37.8093176
        ],
        "country": "Australia",
        "name": "Citizenship test centre - Melbourne",
        "website": ""
    },
    {
        "coordinates": [
            142.159785,
            -34.187949
        ],
        "country": "Australia",
        "name": "Citizenship test centre - Mildura",
        "website": ""
    },
    {
        "coordinates": [
            146.399368,
            -38.239738
        ],
        "country": "Australia",
        "name": "Citizenship test centre - Morwell",
        "website": ""
    },
    {
        "coordinates": [
            145.399743,
            -36.384982
        ],
        "country": "Australia",
        "name": "Citizenship test centre - Shepparton",
        "website": ""
    },
    {
        "coordinates": [
            142.485779,
            -38.382712
        ],
        "country": "Australia",
        "name": "Citizenship test centre - Warrnambool",
        "website": ""
    },
    {
        "coordinates": [
            117.884397,
            -35.026354
        ],
        "country": "Australia",
        "name": "Citizenship test centre - Albany",
        "website": ""
    },
    {
        "coordinates": [
            122.240051,
            -17.954216
        ],
        "country": "Australia",
        "name": "Citizenship test centre - Broome",
        "website": ""
    },
    {
        "coordinates": [
            115.6352208,
            -33.3239344
        ],
        "country": "Australia",
        "name": "Citizenship test centre - Bunbury",
        "website": ""
    },
    {
        "coordinates": [
            114.612544,
            -28.77067
        ],
        "country": "Australia",
        "name": "Citizenship test centre - Geraldton",
        "website": ""
    },
    {
        "coordinates": [
            121.477257,
            -30.745415
        ],
        "country": "Australia",
        "name": "Citizenship test centre - Kalgoorlie",
        "website": ""
    },
    {
        "coordinates": [
            116.849759,
            -20.737432
        ],
        "country": "Australia",
        "name": "Citizenship test centre - Karratha",
        "website": ""
    },
    {
        "coordinates": [
            115.848286,
            -31.947596
        ],
        "country": "Australia",
        "name": "Citizenship test centre - Perth",
        "website": ""
    },
    {
        "coordinates": [
            118.599506,
            -20.407999
        ],
        "country": "Australia",
        "name": "Citizenship test centre - South Hedland",
        "website": ""
    },
    {
        "coordinates": [
            149.132672,
            -35.273421
        ],
        "country": "Australia",
        "name": "Visa and Citizenship office - Canberra",
        "website": ""
    },
    {
        "coordinates": [
            151.203806,
            -33.885004
        ],
        "country": "Australia",
        "name": "Visa and Citizenship office - Sydney",
        "website": ""
    },
    {
        "coordinates": [
            151.005047,
            -33.819298
        ],
        "country": "Australia",
        "name": "Visa and Citizenship office - Parramatta",
        "website": ""
    },
    {
        "coordinates": [
            130.841266,
            -12.46065
        ],
        "country": "Australia",
        "name": "Visa and Citizenship office - Darwin",
        "website": ""
    },
    {
        "coordinates": [
            153.028325,
            -27.466196
        ],
        "country": "Australia",
        "name": "Visa and Citizenship office - Brisbane",
        "website": ""
    },
    {
        "coordinates": [
            145.773072,
            -16.927157
        ],
        "country": "Australia",
        "name": "Visa and Citizenship office - Cairns",
        "website": ""
    },
    {
        "coordinates": [
            138.596691,
            -34.927092
        ],
        "country": "Australia",
        "name": "Visa and Citizenship office - Adelaide ",
        "website": ""
    },
    {
        "coordinates": [
            147.325511,
            -42.885525
        ],
        "country": "Australia",
        "name": "Visa and Citizenship office - Hobart",
        "website": ""
    },
    {
        "coordinates": [
            144.971567,
            -37.809318
        ],
        "country": "Australia",
        "name": "Visa and Citizenship office - Melbourne",
        "website": ""
    },
    {
        "coordinates": [
            115.848202,
            -31.947666
        ],
        "country": "Australia",
        "name": "Visa and Citizenship office - Perth",
        "website": ""
    },
    {
        "coordinates": [
            14.550072,
            47.516231
        ],
        "country": "Austria",
        "name": "Austria",
        "website": ""
    },
    {
        "coordinates": [
            16.371311,
            48.219724
        ],
        "country": "Austria",
        "name": "Ambulatorium Augarten",
        "website": ""
    },
    {
        "coordinates": [
            14.550072,
            47.516231
        ],
        "country": "Austria",
        "name": "Police check - Austria",
        "website": "<div class='ExternalClass7345D21F37A34EF788D152A31F02AC69'>\n   \u200b<a class='external' href='http&#58;//www.help.gv.at/'>http&#58;//www.help.gv.at</a>\n</div>"
    },
    {
        "coordinates": [
            47.576927,
            40.143105
        ],
        "country": "Azerbaijan",
        "name": "Azerbaijan",
        "website": ""
    },
    {
        "coordinates": [
            49.835744,
            40.386014
        ],
        "country": "Azerbaijan",
        "name": "Turkish American Medical Center",
        "website": ""
    },
    {
        "coordinates": [
            49.831168,
            40.375245
        ],
        "country": "Azerbaijan",
        "name": "Police check - Azerbaijan",
        "website": "<div class='ExternalClass06FF8E7CD21541D7900BA201F218BF66'>\n   <a class='external' href='http&#58;//www.mia.gov.az/?/en/'>http&#58;//www.mia.gov.az/?/en/</a>\n</div>"
    },
    {
        "coordinates": [
            -77.396279999,
            25.03428
        ],
        "country": "Bahamas, The",
        "name": "Bahamas",
        "website": ""
    },
    {
        "coordinates": [
            -77.3963,
            25.0343
        ],
        "country": "Bahamas, The",
        "name": "No panel physicians",
        "website": ""
    },
    {
        "coordinates": [
            -77.3518654,
            25.050471793
        ],
        "country": "Bahamas, The",
        "name": "Police Check - Bahamas",
        "website": "<div class='ExternalClass5E7982FAFB1345DBBF01E7F816969F78'>\n   <a class='external' href='https&#58;//forms.bahamas.gov.bs/rbpf/request.asp'>https&#58;//forms.bahamas.gov.bs/rbpf/request.asp</a>\n</div>"
    },
    {
        "coordinates": [
            50.5577,
            26.0667
        ],
        "country": "Bahrain",
        "name": "Bahrain",
        "website": ""
    },
    {
        "coordinates": [
            50.591667,
            26.240976
        ],
        "country": "Bahrain",
        "name": "VFS Global - Manama",
        "website": "<div class='ExternalClassA7FA6F4069C1471FAFB0073ED76BD3FD'><p>See <a class='external' href='http&#58;//www.vfsglobal.com/Australia/GCC/'>VFS Global</a><br></p></div>"
    },
    {
        "coordinates": [
            50.578146,
            26.226025
        ],
        "country": "Bahrain",
        "name": "American Mission Hospital",
        "website": ""
    },
    {
        "coordinates": [
            -77.39628,
            25.03428
        ],
        "country": "Bahrain",
        "name": "Police Check - Bahrain",
        "website": ""
    },
    {
        "coordinates": [
            90.356330999999,
            23.684994
        ],
        "country": "Bangladesh",
        "name": "Bangladesh",
        "website": ""
    },
    {
        "coordinates": [
            90.413784,
            23.794324
        ],
        "country": "Bangladesh",
        "name": "VFS Global - Dhaka",
        "website": "<div class='ExternalClassFEFE4D74A3ED40B49FCD83C6B313BC3C'><p>See <a class='external' href='http&#58;//www.vfsglobal.com/Australia/Bangladesh/'>VFS Global</a><br></p></div>"
    },
    {
        "coordinates": [
            90.420081,
            23.807333
        ],
        "country": "Bangladesh",
        "name": "Dr. Wahab's Medical Centre",
        "website": ""
    },
    {
        "coordinates": [
            90.418575,
            23.778735
        ],
        "country": "Bangladesh",
        "name": "International Organisation of Migration (IOM)",
        "website": ""
    },
    {
        "coordinates": [
            90.4210822,
            23.8054514
        ],
        "country": "Bangladesh",
        "name": "Green Crescent Health Services",
        "website": ""
    },
    {
        "coordinates": [
            90.356331,
            23.684994
        ],
        "country": "Bangladesh",
        "name": "Police Check - Bangladesh",
        "website": "<div class='ExternalClass8F78843145DA4717A4510398A40E16A4'>\n   <a class='external' href='https&#58;//dmp.gov.bd/public-order-management-division/'>https&#58;//dmp.gov.bd/public-order-management-division/</a>\n</div>"
    },
    {
        "coordinates": [
            -59.54319799999,
            13.193887
        ],
        "country": "Barbados",
        "name": "Barbados",
        "website": ""
    },
    {
        "coordinates": [
            -59.543198,
            13.193887
        ],
        "country": "Barbados",
        "name": "No panel physicians",
        "website": ""
    },
    {
        "coordinates": [
            -59.610438,
            13.102353
        ],
        "country": "Barbados",
        "name": "Police Check - Babados",
        "website": ""
    },
    {
        "coordinates": [
            27.953389,
            53.709807
        ],
        "country": "Belarus",
        "name": "Belarus",
        "website": ""
    },
    {
        "coordinates": [
            27.587086,
            53.910312
        ],
        "country": "Belarus",
        "name": "International Organization for Migration Minsk",
        "website": ""
    },
    {
        "coordinates": [
            27.538897,
            53.890936
        ],
        "country": "Belarus",
        "name": "Police Check - Belarus",
        "website": "<div class='ExternalClass2192E5DEBD494389AC30030490F6559D'>\n   <a class='external' href='http&#58;//guvd.gov.by/analitic/'>http&#58;//guvd.gov.by/analitic/</a>\n</div>"
    },
    {
        "coordinates": [
            4.46993599999,
            50.503887
        ],
        "country": "Belgium",
        "name": "Belgium",
        "website": ""
    },
    {
        "coordinates": [
            4.398166,
            50.857307
        ],
        "country": "Belgium",
        "name": "Centre Medical Meiser",
        "website": ""
    },
    {
        "coordinates": [
            4.419692,
            50.841012
        ],
        "country": "Belgium",
        "name": "SPRL Yves Balon Perin",
        "website": ""
    },
    {
        "coordinates": [
            4.352895,
            50.835269
        ],
        "country": "Belgium",
        "name": "Police check - Belgium",
        "website": "<div class='ExternalClass9397A165752A4A5A98159DDC267F1559'>\n   <a class='external' href='https&#58;//justice.belgium.be/'>https&#58;//justice.belgium.be</a>\n</div>"
    },
    {
        "coordinates": [
            -88.49765,
            17.189877
        ],
        "country": "Belize",
        "name": "Belize",
        "website": ""
    },
    {
        "coordinates": [
            -88.49765,
            17.189877
        ],
        "country": "Belize",
        "name": "No panel physicians",
        "website": ""
    },
    {
        "coordinates": [
            -88.188227,
            17.506964
        ],
        "country": "Belize",
        "name": "Police check - Belize",
        "website": "<div class='ExternalClassDEC1C22E9693449394B293FA118FB054'><p> \n      <a class='external' href='http&#58;//www.belizepolice.bz/'>http&#58;//www.belizepolice.bz/</a><br></p></div>"
    },
    {
        "coordinates": [
            2.31583399,
            9.30769
        ],
        "country": "Benin",
        "name": "Benin",
        "website": ""
    },
    {
        "coordinates": [
            2.3158,
            9.3077
        ],
        "country": "Benin",
        "name": "No panel physicians",
        "website": ""
    },
    {
        "coordinates": [
            2.407234,
            6.351346
        ],
        "country": "Benin",
        "name": "Police Check - benin",
        "website": ""
    },
    {
        "coordinates": [
            -64.7504999,
            32.3078
        ],
        "country": "Bermuda",
        "name": "Bermuda",
        "website": ""
    },
    {
        "coordinates": [
            -64.863886,
            32.303607
        ],
        "country": "Bermuda",
        "name": "Dr G Shaw Medical Office",
        "website": ""
    },
    {
        "coordinates": [
            -64.7505,
            32.3078
        ],
        "country": "Bermuda",
        "name": "Police Check - Bermuda - non-residents",
        "website": "<div class='ExternalClass458616391EE646098CD6EB1999528BF9'><p> \n      <a class='external' href='http&#58;//www.bermudapoliceservice.bm/'>http&#58;//www.bermudapoliceservice.bm/</a><br></p></div>"
    },
    {
        "coordinates": [
            -64.785889,
            32.294584
        ],
        "country": "Bermuda",
        "name": "Police Check - Bermuda Residents",
        "website": "<div class='ExternalClass7C0E33ECF10144C78CF1127463C56E7B'><p> \n      <a class='external' href='http&#58;//www.bermudapoliceservice.bm/'>http&#58;//www.bermudapoliceservice.bm/</a><br></p></div>"
    },
    {
        "coordinates": [
            90.43360099999,
            27.514162
        ],
        "country": "Bhutan",
        "name": "Bhutan",
        "website": ""
    },
    {
        "coordinates": [
            89.639219,
            27.472778
        ],
        "country": "Bhutan",
        "name": "VFS Global - Thimphu",
        "website": "<div class='ExternalClass807E859E1958435E82EC5F5C866251EB'><p>See <a class='external' href='http&#58;//www.vfsglobal.com/Australia/Bhutan/'>VFS Global</a><br></p></div>"
    },
    {
        "coordinates": [
            89.639286,
            27.472792
        ],
        "country": "Bhutan",
        "name": "Jigme Dorje Wangchuck National Referral Hospital",
        "website": ""
    },
    {
        "coordinates": [
            -63.588653,
            -16.290154
        ],
        "country": "Bolivia",
        "name": "Bolivia",
        "website": ""
    },
    {
        "coordinates": [
            -68.089249,
            -16.547005
        ],
        "country": "Bolivia",
        "name": "Centro Medico Internacional Hope",
        "website": "<div class='ExternalClass0967730C72DA47E29ED07CC7CAF2AD80'><p>\n      <a class='external' href='http&#58;//www.cmihope.com./'>http&#58;//www.cmihope.com/</a><br></p></div>"
    },
    {
        "coordinates": [
            -63.179583,
            -17.792091
        ],
        "country": "Bolivia",
        "name": "Centro Medico Foianini",
        "website": ""
    },
    {
        "coordinates": [
            -63.588653,
            -16.290154
        ],
        "country": "Bolivia",
        "name": "Police Check - Bolivia",
        "website": ""
    },
    {
        "coordinates": [
            -63.588653,
            -16.290154
        ],
        "country": "Bosnia and Herzegovina",
        "name": "Bosnia and Herzegovina",
        "website": ""
    },
    {
        "coordinates": [
            18.405959,
            43.857065
        ],
        "country": "Bosnia and Herzegovina",
        "name": "VFS Global - Sarajevo",
        "website": "<div class='ExternalClassDF990D8C2B4545279BD22AE6C8F9397C'><p>See \n      <a class='external' href='https&#58;//www.vfsglobal.com/Australia/Bosnia-and-Herzegovina/'>VFS Global</a><br></p></div>"
    },
    {
        "coordinates": [
            18.384066,
            43.851966
        ],
        "country": "Bosnia and Herzegovina",
        "name": "IOM Sarajevo",
        "website": ""
    },
    {
        "coordinates": [
            17.679076,
            43.915886
        ],
        "country": "Bosnia and Herzegovina",
        "name": "Police Check - Bosnia-Herzegovina",
        "website": ""
    },
    {
        "coordinates": [
            24.684866,
            -22.328474
        ],
        "country": "Botswana",
        "name": "Botswana",
        "website": ""
    },
    {
        "coordinates": [
            25.935395,
            -24.627278
        ],
        "country": "Botswana",
        "name": "Lenmed Health Bokamoso Private Hospital",
        "website": ""
    },
    {
        "coordinates": [
            25.935395,
            -24.627278
        ],
        "country": "Botswana",
        "name": "Dr John Pridgeon GP",
        "website": ""
    },
    {
        "coordinates": [
            25.888129,
            -24.659681
        ],
        "country": "Botswana",
        "name": "Police check - Botswana",
        "website": ""
    },
    {
        "coordinates": [
            51.9253,
            14.235
        ],
        "country": "Brazil",
        "name": "Brazil",
        "website": ""
    },
    {
        "coordinates": [
            -47.874066,
            -15.808481
        ],
        "country": "Brazil",
        "name": "Australian Embassy - Brasilia",
        "website": "<div class='ExternalClass5D43F23779BA4A3DB320D4D26842244E'><p>\u200b<a class='external' href='http&#58;//www.brazil.embassy.gov.au/'>http&#58;//www.brazil.embassy.gov.au</a> </p></div>"
    },
    {
        "coordinates": [
            -47.928417,
            -15.821739
        ],
        "country": "Brazil",
        "name": " Consultorio Medico \u2013 RAOMD",
        "website": "<div class='ExternalClassFD5012B2602B494DB5FF5B9987959210'><p>\u200b<a class='external' href='http&#58;//www.raomd.com.br/'>http&#58;//www.raomd.com.br/</a><br></p></div>"
    },
    {
        "coordinates": [
            -49.270818,
            -25.434146
        ],
        "country": "Brazil",
        "name": "Instituto Forlanini de Pneumologia Ltda",
        "website": ""
    },
    {
        "coordinates": [
            -48.544807,
            -27.60117
        ],
        "country": "Brazil",
        "name": "CIEM - MD Roberto Tobaldini ",
        "website": ""
    },
    {
        "coordinates": [
            -51.214539,
            -30.027623
        ],
        "country": "Brazil",
        "name": "Antonio Pozzer",
        "website": "<div class='ExternalClass29BD1E6F5AA94FC2A371F8133DB21B78'><p><a class='external' href='http&#58;//www.antoniopozzer.poa.br/'>http&#58;//www.antoniopozzer.poa.br</a><br></p></div>"
    },
    {
        "coordinates": [
            -34.896944,
            -8.060146
        ],
        "country": "Brazil",
        "name": "Paulo Almeida",
        "website": ""
    },
    {
        "coordinates": [
            -43.183311,
            -22.968077
        ],
        "country": "Brazil",
        "name": "Clinica Galdino Campos",
        "website": ""
    },
    {
        "coordinates": [
            -43.187566,
            -22.948443
        ],
        "country": "Brazil",
        "name": "Dr A Buescu Medical Office",
        "website": ""
    },
    {
        "coordinates": [
            -46.715178,
            -23.599175
        ],
        "country": "Brazil",
        "name": "CEMOI Centro Medico Ltda",
        "website": ""
    },
    {
        "coordinates": [
            -38.498351,
            -13.006952
        ],
        "country": "Brazil",
        "name": "Centro Medico Cardio Pulmonar",
        "website": ""
    },
    {
        "coordinates": [
            -46.658037,
            -23.548161
        ],
        "country": "Brazil",
        "name": "Dr Joao Jorge Leite's Clinic",
        "website": ""
    },
    {
        "coordinates": [
            -47.375464,
            -20.527184
        ],
        "country": "Brazil",
        "name": "Paulo Ricardo Furbetta",
        "website": ""
    },
    {
        "coordinates": [
            -43.928886,
            -19.925473
        ],
        "country": "Brazil",
        "name": "CLINICA JULIANA CANCADO",
        "website": ""
    },
    {
        "coordinates": [
            -38.50983,
            -3.7307
        ],
        "country": "Brazil",
        "name": "Dr Dirk Schreen",
        "website": ""
    },
    {
        "coordinates": [
            -51.92528,
            -14.235004
        ],
        "country": "Brazil",
        "name": "Police Check - Brazil",
        "website": "<div class='ExternalClass5378D723E00647AEA673F0C0B2015D36'><p> \n      <a class='external' href='http&#58;//www.cjf.jus.br/cjf/certidao-negativa'>http&#58;//www.cjf.jus.br/cjf/certidao-negativa</a><br></p></div>"
    },
    {
        "coordinates": [
            114.727668999,
            4.535277
        ],
        "country": "Brunei Darussalam",
        "name": "Brunei Darussalam",
        "website": ""
    },
    {
        "coordinates": [
            114.830646,
            4.948593
        ],
        "country": "Brunei Darussalam",
        "name": "Jerudong Park Medical Centre",
        "website": ""
    },
    {
        "coordinates": [
            114.903419,
            4.908679
        ],
        "country": "Brunei Darussalam",
        "name": "Police Check - Brunei Darussalam",
        "website": "<div class='ExternalClass834E135389C048BB91C3EE758FF057A3'><p>\n      <a class='external' href='https&#58;//www.mofat.gov.bn/'>http&#58;//www.mofat.gov.bn</a><br></p></div>"
    },
    {
        "coordinates": [
            25.48582999,
            42.733883
        ],
        "country": "Bulgaria",
        "name": "Bulgaria",
        "website": ""
    },
    {
        "coordinates": [
            23.354334,
            42.696048
        ],
        "country": "Bulgaria",
        "name": "Vita Hospital ",
        "website": ""
    },
    {
        "coordinates": [
            25.48583,
            42.733883
        ],
        "country": "Bulgaria",
        "name": "Police Check - Bulgaria",
        "website": "<div class='ExternalClassAE510D1B19EF4253B54A99ED809CF179'><p> \n      <a class='external' href='http&#58;//www.justice.government.bg/'>http&#58;//www.justice.government.bg/</a><br></p></div>"
    },
    {
        "coordinates": [
            -1.561593,
            12.238333
        ],
        "country": "Burkina Faso",
        "name": "Burkina Faso",
        "website": ""
    },
    {
        "coordinates": [
            -1.51966,
            12.371428
        ],
        "country": "Burkina Faso",
        "name": "Clinique Notre Dame de la Paix",
        "website": ""
    },
    {
        "coordinates": [
            -1.51966,
            12.371428
        ],
        "country": "Burkina Faso",
        "name": "Police Check - Burkina Faso",
        "website": ""
    },
    {
        "coordinates": [
            29.91888599,
            -3.373056
        ],
        "country": "Burundi",
        "name": "Burundi",
        "website": ""
    },
    {
        "coordinates": [
            29.354072,
            -3.401554
        ],
        "country": "Burundi",
        "name": "IOM Health Assessment Centre Bujumbura ",
        "website": ""
    },
    {
        "coordinates": [
            29.359878,
            -3.361378
        ],
        "country": "Burundi",
        "name": "Police Check - Burundi",
        "website": ""
    },
    {
        "coordinates": [
            -23.041799999,
            16.5388
        ],
        "country": "Cabo Verde",
        "name": "Cabo Verde",
        "website": ""
    },
    {
        "coordinates": [
            23.0418,
            16.5388
        ],
        "country": "Cabo Verde",
        "name": "No panel physicians",
        "website": ""
    },
    {
        "coordinates": [
            -23.513327,
            14.93305
        ],
        "country": "Cabo Verde",
        "name": "Police check - Cabo Verde Islands",
        "website": ""
    },
    {
        "coordinates": [
            104.991,
            12.5657
        ],
        "country": "Cambodia",
        "name": "Cambodia",
        "website": ""
    },
    {
        "coordinates": [
            104.919822,
            11.55838
        ],
        "country": "Cambodia",
        "name": "VFS Global - Phnom Penh",
        "website": "<div class='ExternalClass15133F6936514AE9A195F34E47EA6A9B'><p>See \n      <a class='external' href='http&#58;//www.vfsglobal.com/australia/cambodia/'>VFS Global</a><br></p></div>"
    },
    {
        "coordinates": [
            104.935782,
            11.552789
        ],
        "country": "Cambodia",
        "name": "Australian Embassy - Phnom Penh",
        "website": "<div class='ExternalClass4A12ECE774894FE9AA4AAA77C060F862'><p> \n      <a class='external' href='http&#58;//www.cambodia.embassy.gov.au/penh/home.html'>http&#58;//www.cambodia.embassy.gov.au/penh/home.html</a> </p></div>"
    },
    {
        "coordinates": [
            104.930024,
            11.532895
        ],
        "country": "Cambodia",
        "name": "International Organization for Migration (IOM) Migration Health Assessment Centre",
        "website": ""
    },
    {
        "coordinates": [
            104.88145,
            11.57939
        ],
        "country": "Cambodia",
        "name": "Raffles Medical \u2013 Phnom Penh",
        "website": ""
    },
    {
        "coordinates": [
            104.933011,
            11.555757
        ],
        "country": "Cambodia",
        "name": "Police check - Cambodia",
        "website": ""
    },
    {
        "coordinates": [
            12.354722,
            7.3697219999
        ],
        "country": "Cameroon",
        "name": "Cameroon",
        "website": ""
    },
    {
        "coordinates": [
            9.68773,
            4.03954
        ],
        "country": "Cameroon",
        "name": "Daniel Muna Memorial Clinic",
        "website": ""
    },
    {
        "coordinates": [
            12.354722,
            7.369722
        ],
        "country": "Cameroon",
        "name": "Police check - Cameroon",
        "website": ""
    },
    {
        "coordinates": [
            -75.698936,
            45.420831
        ],
        "country": "Canada",
        "name": "Canada",
        "website": ""
    },
    {
        "coordinates": [
            -75.698936,
            45.420831
        ],
        "country": "Canada",
        "name": "Australian High Commission - Ottawa",
        "website": "<div class='ExternalClass215D5C26A4CD4C40B9FA654DB25FB3E6'><div>\n      <a class='external' href='http&#58;//www.canada.embassy.gov.au/'>http&#58;//www.canada.embassy.gov.au</a><br></div></div>"
    },
    {
        "coordinates": [
            -114.06284,
            51.066692
        ],
        "country": "Canada",
        "name": "Olive Medical Centre",
        "website": ""
    },
    {
        "coordinates": [
            -123.128072,
            49.279333
        ],
        "country": "Canada",
        "name": "Dr W P Ciszak Medical Services Inc.",
        "website": "<div class='ExternalClassFB9FC33FE8FB4DBC8D72B5068AF355A8'><p></p><a href='http&#58;//immigrationmedical.ca/'>http&#58;//immigrationmedical.ca</a><br></div>"
    },
    {
        "coordinates": [
            -97.123313,
            49.884712
        ],
        "country": "Canada",
        "name": "Dr Martin L Fogel Medical Clinic ",
        "website": ""
    },
    {
        "coordinates": [
            -52.70902,
            47.564587
        ],
        "country": "Canada",
        "name": "Atlantic Offshore Medical Services",
        "website": ""
    },
    {
        "coordinates": [
            -63.586755,
            44.641077
        ],
        "country": "Canada",
        "name": "Kawchuk Medical Incorporated ",
        "website": ""
    },
    {
        "coordinates": [
            -75.661487,
            45.368017
        ],
        "country": "Canada",
        "name": "Bank Medical Clinic",
        "website": "<div class='ExternalClassDD4708E5729849899B610187EACEB2E9'><div>\n      <a class='external' href='https&#58;//immigrationpanelphysician.weebly.com/'>https&#58;//immigrationpanelphysician.weebly.com</a><br></div></div>"
    },
    {
        "coordinates": [
            -79.418152,
            43.682802
        ],
        "country": "Canada",
        "name": "Dr Lyndon Mascarenhas",
        "website": "<div class='ExternalClass3B5365669E0D4CCAA72481D4878E6BA1'><p><a class='external' href='http&#58;//www.visadoctor.ca/'>http&#58;//www.visadoctor.ca</a></p></div>"
    },
    {
        "coordinates": [
            -73.572016,
            45.506138
        ],
        "country": "Canada",
        "name": "Medisys Corporate Health",
        "website": ""
    },
    {
        "coordinates": [
            -106.599811,
            52.115178
        ],
        "country": "Canada",
        "name": "YL Mediclinic",
        "website": ""
    },
    {
        "coordinates": [
            -106.346771,
            56.130366
        ],
        "country": "Canada",
        "name": "Police check - Canada",
        "website": "<div class='ExternalClassE1845A402558461C9CF41D03D0605E3D'><p>\n      <a class='external' href='http&#58;//www.rcmp-grc.gc.ca/'>http&#58;//www.rcmp-grc.gc.ca</a><br></p></div>"
    },
    {
        "coordinates": [
            -81.25459999,
            19.3133
        ],
        "country": "Cayman Islands",
        "name": "Cayman Islands",
        "website": ""
    },
    {
        "coordinates": [
            81.2546,
            19.3133
        ],
        "country": "Cayman Islands",
        "name": "No panel physicians",
        "website": ""
    },
    {
        "coordinates": [
            -81.386968,
            19.281142
        ],
        "country": "Cayman Islands",
        "name": "Police check - Cayman Islands",
        "website": "<div class='ExternalClass77813E27E02F4F57A2A4AD49BD945E58'><p>\n   <a class='external' href='http&#58;//www.rcips.ky/'>http&#58;//www.rcips.ky/</a></p></div>"
    },
    {
        "coordinates": [
            20.9394439,
            6.611110999
        ],
        "country": "Central African Republic",
        "name": "Central African Republic",
        "website": ""
    },
    {
        "coordinates": [
            20.9394,
            6.6111
        ],
        "country": "Central African Republic",
        "name": "No panel physicians",
        "website": ""
    },
    {
        "coordinates": [
            18.732207,
            15.454166
        ],
        "country": "Chad",
        "name": "Chad",
        "website": ""
    },
    {
        "coordinates": [
            18.7322,
            15.4542
        ],
        "country": "Chad",
        "name": "No panel physicians",
        "website": ""
    },
    {
        "coordinates": [
            71.543,
            35.6751
        ],
        "country": "Chile",
        "name": "Chile",
        "website": ""
    },
    {
        "coordinates": [
            -70.59282,
            -33.41431
        ],
        "country": "Chile",
        "name": "Australian Embassy - Santiago",
        "website": "<div class='ExternalClass64932AF93ED24EEFA12E4757794E1000'>\n   <a class='external' href='http&#58;//www.chile.embassy.gov.au/'>http&#58;//www.chile.embassy.gov.au</a><br></div>"
    },
    {
        "coordinates": [
            -70.588683,
            -33.414927
        ],
        "country": "Chile",
        "name": "Red Salud UC-Christus",
        "website": ""
    },
    {
        "coordinates": [
            -71.542969,
            -35.675147
        ],
        "country": "Chile",
        "name": "Police check - Chile",
        "website": "<div class='ExternalClass078FF982EFB844A28F058D6E0CEBB95D'><p>\u200b<a class='external' href='http&#58;//www.srcei.cl/'>http&#58;//www.srcei.cl</a><br></p></div>"
    },
    {
        "coordinates": [
            104.195397,
            35.86166
        ],
        "country": "China (excludes SARs and Taiwan Province)",
        "name": "China",
        "website": ""
    },
    {
        "coordinates": [
            116.444343,
            39.941986
        ],
        "country": "China (excludes SARs and Taiwan Province)",
        "name": "VFS Global \u2013 Beijing, Chengdu, Guangzhou, Shanghai",
        "website": "<div class='ExternalClass3B2F9D34A6D44D45BEB097FCBB1AC048'><p>See <a class='external' href='http&#58;//www.vfsglobal.cn/Australia/China/English'>VFS Global</a><br></p></div>"
    },
    {
        "coordinates": [
            113.342283,
            23.112219
        ],
        "country": "China (excludes SARs and Taiwan Province)",
        "name": "Australian Consulate-General \u2013 Guangzhou",
        "website": "<div class='ExternalClass0F373CD03ABC45729FACAEA61CD9C951'>\u200b<a class='external' href='https&#58;//china.embassy.gov.au/' target='_blank'>https&#58;//china.embassy.gov.au/</a><br></div>"
    },
    {
        "coordinates": [
            121.455257,
            31.22888
        ],
        "country": "China (excludes SARs and Taiwan Province)",
        "name": "Australian Consulate-General \u2013 Shanghai",
        "website": "<div class='ExternalClass10F126E2147A4BCAB2A489E02C200ABE'>\u200b<a class='external' href='https&#58;//china.embassy.gov.au/' target='_blank'>https&#58;//china.embassy.gov.au/</a><br></div>"
    },
    {
        "coordinates": [
            116.44752,
            39.942016
        ],
        "country": "China (excludes SARs and Taiwan Province)",
        "name": "Australian Embassy - Beijing",
        "website": "<div class='ExternalClass89F47037E9F14EE493305D394E5E15D8'> \n   <a href='https&#58;//china.embassy.gov.au/' target='_blank'>https&#58;//china.embassy.gov.au/</a><br></div>"
    },
    {
        "coordinates": [
            116.451362,
            39.94927
        ],
        "country": "China (excludes SARs and Taiwan Province)",
        "name": "Raffles Medical - Beijing",
        "website": ""
    },
    {
        "coordinates": [
            116.436585,
            39.912415
        ],
        "country": "China (excludes SARs and Taiwan Province)",
        "name": "United Family Jianguomen Clinic",
        "website": ""
    },
    {
        "coordinates": [
            116.418214,
            39.898564
        ],
        "country": "China (excludes SARs and Taiwan Province)",
        "name": "Beijing New World Eaton Medical Center",
        "website": "<div class='ExternalClassE55CD10CFAEA4C02A9A95F3FAA8A18D7'> \n   <a class='external' href='http&#58;//www.eatonclinic.com/'>http&#58;//www.eatonclinic.com/</a><br></div>"
    },
    {
        "coordinates": [
            116.378523,
            39.970924
        ],
        "country": "China (excludes SARs and Taiwan Province)",
        "name": "Beijing International Travel Healthcare Center",
        "website": ""
    },
    {
        "coordinates": [
            104.030761,
            30.682774
        ],
        "country": "China (excludes SARs and Taiwan Province)",
        "name": "Chengdu IME Centre",
        "website": "<div class='ExternalClassC5DE407911974C7DAC323BD7606F0333'><p>\u200b<a class='external' href='https&#58;//www.rcime.com/'>https&#58;//www.rcime.com</a><br></p></div>"
    },
    {
        "coordinates": [
            106.570114,
            29.56876
        ],
        "country": "China (excludes SARs and Taiwan Province)",
        "name": "Healthmate International Clinic",
        "website": ""
    },
    {
        "coordinates": [
            119.270688,
            26.044053
        ],
        "country": "China (excludes SARs and Taiwan Province)",
        "name": "IME Centre-Fujian Provincial Hospital (South Branch)",
        "website": ""
    },
    {
        "coordinates": [
            113.321208,
            23.119397
        ],
        "country": "China (excludes SARs and Taiwan Province)",
        "name": "Guangdong International Travel Healthcare Centre",
        "website": ""
    },
    {
        "coordinates": [
            113.322584,
            23.132258
        ],
        "country": "China (excludes SARs and Taiwan Province)",
        "name": "New Omega Medical Centre",
        "website": ""
    },
    {
        "coordinates": [
            120.21151,
            30.296656
        ],
        "country": "China (excludes SARs and Taiwan Province)",
        "name": "IME Centre - Hangzhou Mingliu Clinic",
        "website": ""
    },
    {
        "coordinates": [
            126.669624,
            45.740981
        ],
        "country": "China (excludes SARs and Taiwan Province)",
        "name": "Harbin IME Centre - Heilongjiang International Travel Healthcare Centre",
        "website": "<div class='ExternalClassD241D27F02144881BE70B19B512D7E38'><p><a class='external' href='https&#58;//www.rcime.com/'>https&#58;//www.rcime.com</a></p></div>"
    },
    {
        "coordinates": [
            117,
            36.6901
        ],
        "country": "China (excludes SARs and Taiwan Province)",
        "name": "Jinan IME Centre",
        "website": "<div class='ExternalClass67E3FC974D774E2CBBA95D8A5C7909DE'><p>\u200b<a class='external' href='https&#58;//www.rcime.com/'>https&#58;//www.rcime.com</a><br></p></div>"
    },
    {
        "coordinates": [
            118.823735,
            32.040314
        ],
        "country": "China (excludes SARs and Taiwan Province)",
        "name": "Nanjing Jiangning LaiNing Clinic - (Managed by Raffles Medical)",
        "website": "<div class='ExternalClass59E9A942645849FCA35CE6A158801884'> \n   <a class='external' href='https&#58;//www.rafflesmedicalgroup.com/international-clinics/locations/china/nanjing'>https&#58;//www.rafflesmedicalgroup.com/international-clinics/locations/china/nanjing</a>                                                                                     \n</div>"
    },
    {
        "coordinates": [
            121.508848,
            31.239735
        ],
        "country": "China (excludes SARs and Taiwan Province)",
        "name": "Medifast Shanghai Medical Centre",
        "website": ""
    },
    {
        "coordinates": [
            121.452202,
            31.222526
        ],
        "country": "China (excludes SARs and Taiwan Province)",
        "name": "Parkway Health Shanghai Centre Clinic",
        "website": ""
    },
    {
        "coordinates": [
            121.43198,
            31.189832
        ],
        "country": "China (excludes SARs and Taiwan Province)",
        "name": "Shanghai Eaton Medical Centre",
        "website": ""
    },
    {
        "coordinates": [
            121.364478,
            31.198533
        ],
        "country": "China (excludes SARs and Taiwan Province)",
        "name": "Shanghai International Travel Healthcare Center",
        "website": ""
    },
    {
        "coordinates": [
            121.461721,
            31.253586
        ],
        "country": "China (excludes SARs and Taiwan Province)",
        "name": "Zhabei District Central Hospital",
        "website": "<div class='ExternalClass646DBB3571E14CCDB62875D90D7B3B18'> \n   <a class='external' href='https&#58;//www.prioritymedi.com/'>\u200bhttps&#58;//www.prioritymedi.com</a><br></div>"
    },
    {
        "coordinates": [
            123.405486,
            41.768205
        ],
        "country": "China (excludes SARs and Taiwan Province)",
        "name": "IME Centre - Shenyang",
        "website": "<div class='ExternalClass97BB67815DCB40A58198032CD5F99FAE'><p> \n      <a class='external' href='https&#58;//rcime.com/'>https&#58;//rcime.com</a><br></p></div>"
    },
    {
        "coordinates": [
            114.113274,
            22.56866
        ],
        "country": "China (excludes SARs and Taiwan Province)",
        "name": "IME Centre - Shenzhen",
        "website": "<div class='ExternalClass3F86F51178104BF993AAA53EA0044114'>\n   <a class='external' href='https&#58;//www.prioritymedi.com/'>\u200bhttps&#58;//www.prioritymedi.com</a><br></div>"
    },
    {
        "coordinates": [
            114.348496,
            30.507302
        ],
        "country": "China (excludes SARs and Taiwan Province)",
        "name": "IME Centre - Wuhan (Priority Medical Services)",
        "website": ""
    },
    {
        "coordinates": [
            108.938354,
            34.320394
        ],
        "country": "China (excludes SARs and Taiwan Province)",
        "name": "Healthmate International Clinic",
        "website": ""
    },
    {
        "coordinates": [
            104.195397,
            35.86166
        ],
        "country": "China (excludes SARs and Taiwan Province)",
        "name": "Police check - People's Republic of China",
        "website": ""
    },
    {
        "coordinates": [
            -74.29733299,
            4.570868
        ],
        "country": "Colombia",
        "name": "Colombia",
        "website": ""
    },
    {
        "coordinates": [
            -75.566262,
            6.246404
        ],
        "country": "Colombia",
        "name": "CSRA - Bogota and Medellin",
        "website": "<div class='ExternalClass022D18EE9C644994B9CBA3FBC0542D47'><p>See <a class='external' href='https&#58;//australia.visaops.net/'>CSRA</a><br></p></div>"
    },
    {
        "coordinates": [
            -74.045778,
            4.67824
        ],
        "country": "Colombia",
        "name": "Immimed-Dr.Paul Vaillancourt",
        "website": ""
    },
    {
        "coordinates": [
            -75.576466,
            6.203231
        ],
        "country": "Colombia",
        "name": "Clinica Las Vegas",
        "website": "<div class='ExternalClassB57992F5B2F447A081B9BF9C5D2FD769'><p>\u200b<a class='external' href='http&#58;//www.joseignaciorestrepo.com/'>http&#58;//www.joseignaciorestrepo.com/</a><br></p></div>"
    },
    {
        "coordinates": [
            -76.525882,
            3.372602
        ],
        "country": "Colombia",
        "name": "Fundacion Clinica Valle Del Lili",
        "website": ""
    },
    {
        "coordinates": [
            -74,
            5
        ],
        "country": "Colombia",
        "name": "Police check - Colombia",
        "website": "<div class='ExternalClass72A6A056C67640C4833D7906F3D46DE2'><p>\u200b<a class='external' href='http&#58;//www.cancilleria.gov.co/'>http&#58;//www.cancilleria.gov.co/</a><br></p></div>"
    },
    {
        "coordinates": [
            43.3333,
            -11.6455
        ],
        "country": "Comoros",
        "name": "Comoros",
        "website": ""
    },
    {
        "coordinates": [
            43.3333,
            11.6455
        ],
        "country": "Comoros",
        "name": "No panel physicians",
        "website": ""
    },
    {
        "coordinates": [
            43.247315,
            -11.717216
        ],
        "country": "Comoros",
        "name": "Police check - Comoros",
        "website": ""
    },
    {
        "coordinates": [
            21.7586639999,
            -4.038333
        ],
        "country": "Congo, Democratic Republic of the",
        "name": "Congo, Democratic Republic of the",
        "website": ""
    },
    {
        "coordinates": [
            15.309774,
            -4.304482
        ],
        "country": "Congo, Democratic Republic of the",
        "name": "IOM Migration Health Assessment Centre Kinshasa",
        "website": ""
    },
    {
        "coordinates": [
            15.296065,
            -4.304113
        ],
        "country": "Congo, Democratic Republic of the",
        "name": "Police check - Congo (Democratic Republic Of)",
        "website": ""
    },
    {
        "coordinates": [
            15.827659,
            -0.228021
        ],
        "country": "Congo, Republic of the",
        "name": "Congo, Republic of the",
        "website": ""
    },
    {
        "coordinates": [
            15.263296,
            -4.259119
        ],
        "country": "Congo, Republic of the",
        "name": "Clinique Des Acacias",
        "website": ""
    },
    {
        "coordinates": [
            15.242885,
            -4.26336
        ],
        "country": "Congo, Republic of the",
        "name": "Police check -  Congo (Republic Of)",
        "website": ""
    },
    {
        "coordinates": [
            -159.7776,
            -21.236736
        ],
        "country": "Cook Islands",
        "name": "Cook Islands",
        "website": ""
    },
    {
        "coordinates": [
            -150,
            -20
        ],
        "country": "Cook Islands",
        "name": "No panel physicians",
        "website": ""
    },
    {
        "coordinates": [
            -159.782306,
            -21.212901
        ],
        "country": "Cook Islands",
        "name": "Police check - Cook Islands",
        "website": ""
    },
    {
        "coordinates": [
            -83.753427999,
            9.748916999
        ],
        "country": "Costa Rica",
        "name": "Costa Rica",
        "website": ""
    },
    {
        "coordinates": [
            -84.099324,
            10.014343
        ],
        "country": "Costa Rica",
        "name": "Clinica de Medicina Interna",
        "website": ""
    },
    {
        "coordinates": [
            -84.079144,
            9.927796
        ],
        "country": "Costa Rica",
        "name": "Clinica Americana",
        "website": ""
    },
    {
        "coordinates": [
            -84.069761,
            9.930655
        ],
        "country": "Costa Rica",
        "name": "Police check - Costa Rica",
        "website": ""
    },
    {
        "coordinates": [
            15.2000001,
            45.1
        ],
        "country": "Croatia",
        "name": "Croatia",
        "website": ""
    },
    {
        "coordinates": [
            15.981096,
            45.80902
        ],
        "country": "Croatia",
        "name": "Poliklinika Centar",
        "website": ""
    },
    {
        "coordinates": [
            15.986028,
            45.800947
        ],
        "country": "Croatia",
        "name": "Police check - Croatia",
        "website": "<div class='ExternalClass28F6672A075E4BE6B577B8E73E658477'><p>\u200b<a class='external' href='http&#58;//www.pravosudje.hr/'>http&#58;//www.pravosudje.hr/</a> </p></div>"
    },
    {
        "coordinates": [
            -77.78116699,
            21.521757
        ],
        "country": "Cuba",
        "name": "Cuba",
        "website": ""
    },
    {
        "coordinates": [
            -80,
            20
        ],
        "country": "Cuba",
        "name": "No panel physicians",
        "website": ""
    },
    {
        "coordinates": [
            -82.366596,
            23.113593
        ],
        "country": "Cuba",
        "name": "Police check - Cuba",
        "website": ""
    },
    {
        "coordinates": [
            -68.99002,
            12.16957
        ],
        "country": "Curacao",
        "name": "Curacao",
        "website": ""
    },
    {
        "coordinates": [
            -68,
            12
        ],
        "country": "Curacao",
        "name": "Praktijk Sorsaka",
        "website": ""
    },
    {
        "coordinates": [
            -68.908775,
            12.15116
        ],
        "country": "Curacao",
        "name": "Police check - Curacao",
        "website": ""
    },
    {
        "coordinates": [
            33.429859,
            35.126413
        ],
        "country": "Cyprus",
        "name": "Cyprus",
        "website": ""
    },
    {
        "coordinates": [
            33.361103,
            35.159594
        ],
        "country": "Cyprus",
        "name": "Cardiovascular Diagnostic Centre",
        "website": ""
    },
    {
        "coordinates": [
            33.382276,
            35.185566
        ],
        "country": "Cyprus",
        "name": "Police check - Cyprus",
        "website": "<div class='ExternalClass4442AA7F556E48208AAA52B632A44CC0'><p>\u200b<a class='external' href='http&#58;//www.police.gov.cy/'>http&#58;//www.police.gov.cy</a><br></p></div>"
    },
    {
        "coordinates": [
            15.472962,
            49.817492
        ],
        "country": "Czech Republic",
        "name": "Czech Republic",
        "website": ""
    },
    {
        "coordinates": [
            14.396661,
            50.101153
        ],
        "country": "Czech Republic",
        "name": "Medical and Radiological Clinic Vitezne nam Nr 9",
        "website": ""
    },
    {
        "coordinates": [
            14.4378,
            50.075538
        ],
        "country": "Czech Republic",
        "name": "Police check - Czech Republic",
        "website": "<div class='ExternalClass730196801566456BB05669053C693A72'><p>\u200b<a class='external' href='http&#58;//portal.justice.cz/'>http&#58;//portal.justice.cz/</a></p></div>"
    },
    {
        "coordinates": [
            9.501785,
            56.26392
        ],
        "country": "Denmark",
        "name": "Denmark",
        "website": ""
    },
    {
        "coordinates": [
            12.578796,
            55.698331
        ],
        "country": "Denmark",
        "name": "Morten Birk-Petersen",
        "website": ""
    },
    {
        "coordinates": [
            12.578796,
            55.698331
        ],
        "country": "Denmark",
        "name": "Praktiserende Laeger Bille Hansen",
        "website": ""
    },
    {
        "coordinates": [
            12.295471,
            55.665183
        ],
        "country": "Denmark",
        "name": "Police check - Denmark",
        "website": "<div class='ExternalClassF619EA8FB58445589C91F32E31145151'><p>\u200b<a class='external' href='http&#58;//www.politi.dk/'>http&#58;//www.politi.dk</a><br></p></div>"
    },
    {
        "coordinates": [
            42.590275,
            11.825138
        ],
        "country": "Djibouti",
        "name": "Djibouti",
        "website": ""
    },
    {
        "coordinates": [
            43.14701,
            11.596617
        ],
        "country": "Djibouti",
        "name": "Poly Clinique de Djibouti",
        "website": ""
    },
    {
        "coordinates": [
            42.590275,
            11.825138
        ],
        "country": "Djibouti",
        "name": "Police check - Djibouti",
        "website": ""
    },
    {
        "coordinates": [
            -61.370976,
            15.414999
        ],
        "country": "Dominica",
        "name": "Domnica",
        "website": ""
    },
    {
        "coordinates": [
            -61,
            15
        ],
        "country": "Dominica",
        "name": "No panel physicians",
        "website": ""
    },
    {
        "coordinates": [
            -61.384552,
            15.299874
        ],
        "country": "Dominica",
        "name": "Police check - Dominica",
        "website": ""
    },
    {
        "coordinates": [
            -70.162651,
            18.735693
        ],
        "country": "Dominican Republic",
        "name": "Dominican Republic",
        "website": ""
    },
    {
        "coordinates": [
            -69.89584,
            18.466176
        ],
        "country": "Dominican Republic",
        "name": "Consultorios de Visa",
        "website": ""
    },
    {
        "coordinates": [
            -69.911081,
            18.467231
        ],
        "country": "Dominican Republic",
        "name": "Police check - Dominican Republic",
        "website": "<div class='ExternalClass24172460E5C24A289E6A007A995D1FDA'><p>\n      <a class='external' href='http&#58;//www.pgr.gob.do/'>http&#58;//www.pgr.gob.do/</a></p></div>"
    },
    {
        "coordinates": [
            -78.183406,
            -1.831239
        ],
        "country": "Ecuador",
        "name": "Ecuador",
        "website": ""
    },
    {
        "coordinates": [
            -79.899883,
            -2.160356
        ],
        "country": "Ecuador",
        "name": "Dr Enrique Bolona G",
        "website": ""
    },
    {
        "coordinates": [
            -78.539758,
            -0.268353
        ],
        "country": "Ecuador",
        "name": "Dr Rodrigo Sosa Clinic",
        "website": ""
    },
    {
        "coordinates": [
            -78.484388,
            -0.13177
        ],
        "country": "Ecuador",
        "name": "Hospital Metropolitano ",
        "website": ""
    },
    {
        "coordinates": [
            -78.467838,
            -0.180653
        ],
        "country": "Ecuador",
        "name": "Police check - Ecuador",
        "website": "<div class='ExternalClass71F6895405C64BFA9B5B1D19CB9FCA42'><p> \n      <a class='external' href='http&#58;//www.policiaecuador.gob.ec/'>http&#58;//www.policiaecuador.gob.ec/</a><br></p></div>"
    },
    {
        "coordinates": [
            30.8025,
            26.8206
        ],
        "country": "Egypt",
        "name": "Egypt",
        "website": ""
    },
    {
        "coordinates": [
            31.198217,
            30.052266
        ],
        "country": "Egypt",
        "name": "VFS Global - Cairo",
        "website": "<div class='ExternalClass0C45E14EF0474CAE9DC71A1A89BC140B'><p>See  \n      <a class='external' href='https&#58;//www.vfsglobal.com/Australia/Egypt/'>VFS Global</a></p></div>"
    },
    {
        "coordinates": [
            31.227485,
            30.064663
        ],
        "country": "Egypt",
        "name": "Australian Embassy - Cairo",
        "website": "<div class='ExternalClass2D2D452A550E482F959CBC27DED63D1C'><p>\u200b<a class='external' href='http&#58;//www.egypt.embassy.gov.au/'>http&#58;//www.egypt.embassy.gov.au</a><br></p></div>"
    },
    {
        "coordinates": [
            31.202534,
            30.039451
        ],
        "country": "Egypt",
        "name": "IOM MHAC",
        "website": ""
    },
    {
        "coordinates": [
            31.235712,
            30.04442
        ],
        "country": "Egypt",
        "name": "Police check - Egypt",
        "website": ""
    },
    {
        "coordinates": [
            -88.8724974072,
            13.794185
        ],
        "country": "El Salvador",
        "name": "El Salvador",
        "website": ""
    },
    {
        "coordinates": [
            -89.257701,
            13.668659
        ],
        "country": "El Salvador",
        "name": "Dr Roberto Zelaya",
        "website": ""
    },
    {
        "coordinates": [
            -89.187821,
            13.695729
        ],
        "country": "El Salvador",
        "name": "Police check - El Salvador",
        "website": ""
    },
    {
        "coordinates": [
            10.267894999,
            1.650801
        ],
        "country": "Equatorial Guinea",
        "name": "Equatorial Guinea",
        "website": ""
    },
    {
        "coordinates": [
            10.5,
            1.5
        ],
        "country": "Equatorial Guinea",
        "name": "No panel physicians",
        "website": ""
    },
    {
        "coordinates": [
            8.775456,
            3.753015
        ],
        "country": "Equatorial Guinea",
        "name": "Police check - Equatorial Guinea",
        "website": ""
    },
    {
        "coordinates": [
            39.782333999,
            15.179384
        ],
        "country": "Eritrea",
        "name": "Eritrea",
        "website": ""
    },
    {
        "coordinates": [
            38.935102,
            15.334029
        ],
        "country": "Eritrea",
        "name": "Eritel Clinic",
        "website": ""
    },
    {
        "coordinates": [
            38.931415,
            15.338049
        ],
        "country": "Eritrea",
        "name": "Police check - Eritrea",
        "website": ""
    },
    {
        "coordinates": [
            25.0136070999,
            58.595272
        ],
        "country": "Estonia",
        "name": "Estonia",
        "website": ""
    },
    {
        "coordinates": [
            24.760591,
            59.437551
        ],
        "country": "Estonia",
        "name": "Innomedica Medical Centre",
        "website": ""
    },
    {
        "coordinates": [
            24.753575,
            59.436961
        ],
        "country": "Estonia",
        "name": "Police check - Estonia",
        "website": "<div class='ExternalClassA75E9A05C1B2427B980DA3D69440A2A8'><p><a class='external' href='http&#58;//www.rik.ee/en/criminal-records-database'>http&#58;//www.rik.ee/en/criminal-records-database</a></p></div>"
    },
    {
        "coordinates": [
            31.465866,
            -26.522503
        ],
        "country": "Eswatini",
        "name": "Eswatini",
        "website": ""
    },
    {
        "coordinates": [
            31.136672,
            -26.305448
        ],
        "country": "Eswatini",
        "name": "Medical Clinic",
        "website": ""
    },
    {
        "coordinates": [
            31.465866,
            -26.522503
        ],
        "country": "Eswatini",
        "name": "Police Check - Eswatini",
        "website": ""
    },
    {
        "coordinates": [
            40.489673,
            9.145
        ],
        "country": "Ethiopia",
        "name": "Ethiopia",
        "website": ""
    },
    {
        "coordinates": [
            38.783964,
            9.015262
        ],
        "country": "Ethiopia",
        "name": "VFS Global - Addis Ababa ",
        "website": "<div class='ExternalClass8F22A3B3368A4E56B05A00E1AA55188E'><p>See \n      <a class='external' href='https&#58;//www.vfsglobal.com/australia/ethiopia/' target='_blank'>VFS Global</a><br></p></div>"
    },
    {
        "coordinates": [
            38.789554,
            8.990294
        ],
        "country": "Ethiopia",
        "name": "International Organization for Migration (IOM) - Addis Ababa ",
        "website": ""
    },
    {
        "coordinates": [
            38.757761,
            8.980603
        ],
        "country": "Ethiopia",
        "name": "Police check - Ethiopia",
        "website": ""
    },
    {
        "coordinates": [
            -6.9118061,
            61.892635
        ],
        "country": "Faeroe Islands (Denmark)",
        "name": "Faeroe Islands (Denmark)",
        "website": ""
    },
    {
        "coordinates": [
            -7,
            61
        ],
        "country": "Faeroe Islands (Denmark)",
        "name": "No panel physicians",
        "website": ""
    },
    {
        "coordinates": [
            -59.523613,
            -51.796253
        ],
        "country": "Falkland Islands",
        "name": "Falkland Islands",
        "website": ""
    },
    {
        "coordinates": [
            -59,
            -51
        ],
        "country": "Falkland Islands",
        "name": "No panel physicians",
        "website": ""
    },
    {
        "coordinates": [
            178.065,
            17.7134
        ],
        "country": "Fiji",
        "name": "Fiji",
        "website": ""
    },
    {
        "coordinates": [
            177.446316,
            -17.603713
        ],
        "country": "Fiji",
        "name": "TT Services - Lautoka and Suva",
        "website": "<div class='ExternalClass61B4CEFD98B54A23BCFB9BCF8261225F'><p>See <a class='external' href='https&#58;//www.ttsaustralia.com/?Country=fiji&amp;Documents=Index'>TT Services</a><br></p></div>"
    },
    {
        "coordinates": [
            178.446955,
            -18.092931
        ],
        "country": "Fiji",
        "name": "Australian High Commission - Suva",
        "website": "<div class='ExternalClass9D2434B40E604E4DA2042EB27507CFE8'><p>\u200b<a class='external' href='http&#58;//www.fiji.embassy.gov.au/'>http&#58;//www.fiji.embassy.gov.au</a> </p></div>"
    },
    {
        "coordinates": [
            177.449482,
            -17.61227
        ],
        "country": "Fiji",
        "name": "Avenue Clinic",
        "website": ""
    },
    {
        "coordinates": [
            177.417533,
            -17.801327
        ],
        "country": "Fiji",
        "name": "Zens Medical Centre",
        "website": ""
    },
    {
        "coordinates": [
            178.429561,
            -18.136114
        ],
        "country": "Fiji",
        "name": "The Epworth Clinic",
        "website": ""
    },
    {
        "coordinates": [
            178.425284,
            -18.137105
        ],
        "country": "Fiji",
        "name": "Police check - Fiji",
        "website": "<div class='ExternalClass99D40E977B24493E8042A92065C2D9A4'><p>\n      <a class='external' href='http&#58;//fiji.highcommission.gov.au/suva/visa_forms.html'>http&#58;//fiji.highcommission.gov.au/suva/visa_forms.html</a></p></div>"
    },
    {
        "coordinates": [
            25.748151099,
            61.92410999
        ],
        "country": "Finland",
        "name": "Finland",
        "website": ""
    },
    {
        "coordinates": [
            24.934549,
            60.168406
        ],
        "country": "Finland",
        "name": "Laakarikeskus Aava Kamppi",
        "website": ""
    },
    {
        "coordinates": [
            24.938379,
            60.169856
        ],
        "country": "Finland",
        "name": "Police check - Finland",
        "website": "<div class='ExternalClass267136B0E006464EB2C13FADB745D145'><p><a class='external' href='http&#58;//www.oikeus.fi/oikeusrekisterikeskus'>http&#58;//www.oikeus.fi/oikeusrekisterikeskus</a></p></div>"
    },
    {
        "coordinates": [
            2.352222,
            48.856614
        ],
        "country": "France",
        "name": "France",
        "website": ""
    },
    {
        "coordinates": [
            2.333279,
            48.876429
        ],
        "country": "France",
        "name": "VFS Global - Paris",
        "website": "<div class='ExternalClass2EFFE3C840264809BD583F2421DFBA14'><p>See <a class='external' href='https&#58;//www.vfsglobal.com/Australia/France/'>VFS Global</a></p></div>"
    },
    {
        "coordinates": [
            -0.573585,
            44.851766
        ],
        "country": "France",
        "name": "Da Costa Noble Patrick",
        "website": ""
    },
    {
        "coordinates": [
            7.263642,
            43.696616
        ],
        "country": "France",
        "name": "Cabinet ROSSANT",
        "website": ""
    },
    {
        "coordinates": [
            2.30983,
            48.853029
        ],
        "country": "France",
        "name": "Dr Nancy Salzman",
        "website": "<div class='ExternalClassF9E9896875E84ED59C5FEB448DCDBD6F'><p><a class='external' href='http&#58;//doctor-salzman.com/general-information/'>http&#58;//doctor-salzman.com/general-information/</a><br></p></div>"
    },
    {
        "coordinates": [
            6.2213,
            43.8454
        ],
        "country": "France",
        "name": "Dr MARTELLY-BARAU Magali",
        "website": ""
    },
    {
        "coordinates": [
            -1.54015,
            47.255041
        ],
        "country": "France",
        "name": "Police check - France",
        "website": "<div class='ExternalClassCF240FC763584A3580395A03A0BE1319'><p>\n      <a class='external' href='https&#58;//www.cjn.justice.gouv.fr/'>https&#58;//www.cjn.justice.gouv.fr/</a></p></div>"
    },
    {
        "coordinates": [
            -53.125782,
            3.933889
        ],
        "country": "French Guiana",
        "name": "French Guiana",
        "website": ""
    },
    {
        "coordinates": [
            -53,
            4
        ],
        "country": "French Guiana",
        "name": "No panel physicians",
        "website": ""
    },
    {
        "coordinates": [
            -1.511799,
            47.233781
        ],
        "country": "French Guiana",
        "name": "Police check - French Guiana",
        "website": "<div class='ExternalClass01B2178AED0D422F86B165C4A36A3878'><p> \n      <a class='external' href='https&#58;//www.cjn.justice.gouv.fr/cjn/b3/eje20c'>https&#58;//www.cjn.justice.gouv.fr/cjn/b3/eje20c</a><br></p></div>"
    },
    {
        "coordinates": [
            -149.455257,
            -17.646084
        ],
        "country": "French Polynesia",
        "name": "French Polynesia",
        "website": ""
    },
    {
        "coordinates": [
            -149.560176,
            -17.536453
        ],
        "country": "French Polynesia",
        "name": "Mamao Medical Ambulatory Clinic",
        "website": ""
    },
    {
        "coordinates": [
            -149.558476,
            -17.551625
        ],
        "country": "French Polynesia",
        "name": "Police check - French Polynesia",
        "website": "<div class='ExternalClass452F5B6467B44AC1AD819156CBF82578'><p>\n      <a class='external' href='http&#58;//www.cjn.justice.gouv.fr/'>http&#58;//www.cjn.justice.gouv.fr</a><br></p></div>"
    },
    {
        "coordinates": [
            11.6094439,
            -0.803689
        ],
        "country": "Gabon",
        "name": "Gabon",
        "website": ""
    },
    {
        "coordinates": [
            11.716408,
            -0.636225
        ],
        "country": "Gabon",
        "name": "No panel physicians",
        "website": ""
    },
    {
        "coordinates": [
            9.467268,
            0.416198
        ],
        "country": "Gabon",
        "name": "Police check - Gabon ",
        "website": ""
    },
    {
        "coordinates": [
            -15.310138999,
            13.443182
        ],
        "country": "Gambia, The",
        "name": "Gambia",
        "website": ""
    },
    {
        "coordinates": [
            -16.714234,
            13.451549
        ],
        "country": "Gambia, The",
        "name": "Lamtoro Medical Centre",
        "website": ""
    },
    {
        "coordinates": [
            -16.577409,
            13.458328
        ],
        "country": "Gambia, The",
        "name": "Police check - Gambia",
        "website": "<div class='ExternalClassE1A768E6AE334C968D1408524F26BB64'><p> \n      <a class='external' href='http&#58;//www.gambia.com/' target='_blank'>http&#58;//www.gambia.com/</a><br></p></div>"
    },
    {
        "coordinates": [
            43.35098,
            42.090102
        ],
        "country": "Georgia",
        "name": "Georgia",
        "website": ""
    },
    {
        "coordinates": [
            44.768112,
            41.708376
        ],
        "country": "Georgia",
        "name": "Medical Center Cito",
        "website": ""
    },
    {
        "coordinates": [
            44.797871,
            41.696663
        ],
        "country": "Georgia",
        "name": "Police check - Georgia",
        "website": ""
    },
    {
        "coordinates": [
            10.4515,
            51.1657
        ],
        "country": "Germany",
        "name": "Germany",
        "website": ""
    },
    {
        "coordinates": [
            13.409733,
            52.512286
        ],
        "country": "Germany",
        "name": "Australian Embassy - Berlin",
        "website": "<div class='ExternalClass388800CE576143189CE3436939D67775'><p>\u200b<a class='external' href='http&#58;//www.germany.embassy.gov.au/%20target='>http&#58;//www.germany.embassy.gov.au</a></p></div>"
    },
    {
        "coordinates": [
            13.341104,
            52.504269
        ],
        "country": "Germany",
        "name": "Praevenio ",
        "website": "<div class='ExternalClassBD144FCCEAB84AB1A04DE8D4002443ED'><p>\n      <a class='external' href='http&#58;//www.praevenio-berlin.de/' target='_blank'>http&#58;//www.praevenio-berlin.de</a><br></p></div>"
    },
    {
        "coordinates": [
            8.665451,
            50.116429
        ],
        "country": "Germany",
        "name": "Internistische Kardiologische Gemeinschaftspraxis",
        "website": "<div class='ExternalClass4F4717EA337F442BA8268452633955F4'><p> \n      <a class='external' href='http&#58;//www.internisten-im-westend.de/' target='_blank'>http&#58;//www.internisten-im-westend.de</a><br></p></div>"
    },
    {
        "coordinates": [
            7.112529,
            50.726407
        ],
        "country": "Germany",
        "name": "Polie check - Germany",
        "website": "<div class='ExternalClass4D2CF4B660014738809E59B7DE129EA2'><p>\n      <a class='external' href='http&#58;//www.bundesjustizamt.de/' target='_blank'>http&#58;//www.bundesjustizamt.de</a><br></p></div>"
    },
    {
        "coordinates": [
            -1.02319399,
            7.946527
        ],
        "country": "Ghana",
        "name": "Ghana",
        "website": ""
    },
    {
        "coordinates": [
            -0.182152,
            5.576313
        ],
        "country": "Ghana",
        "name": "VFS Global - Accra",
        "website": "<div class='ExternalClass02AA31489B264F6D9CA2A337500D91D4'><p>See \n      <a class='external' href='https&#58;//www.vfsglobal.com/australia/ghana/' target='_blank'>VFS Global</a><br></p></div>"
    },
    {
        "coordinates": [
            -0.171809,
            5.57732
        ],
        "country": "Ghana",
        "name": "Akai House Clinic",
        "website": ""
    },
    {
        "coordinates": [
            -0.19295,
            5.601519
        ],
        "country": "Ghana",
        "name": "International Organisation for Migration (IOM)",
        "website": ""
    },
    {
        "coordinates": [
            -0.186964,
            5.603717
        ],
        "country": "Ghana",
        "name": "Police check - Ghana",
        "website": ""
    },
    {
        "coordinates": [
            -5.353585,
            36.140751
        ],
        "country": "Gibraltar",
        "name": "Gibraltar",
        "website": ""
    },
    {
        "coordinates": [
            -5.34,
            36.13
        ],
        "country": "Gibraltar",
        "name": "No panel physicians",
        "website": ""
    },
    {
        "coordinates": [
            21.824311999,
            39.074208
        ],
        "country": "Greece",
        "name": "Greece",
        "website": ""
    },
    {
        "coordinates": [
            23.7275,
            37.9838
        ],
        "country": "Greece",
        "name": "VFS Global \u2014 Athens and Thessaloniki",
        "website": "<div class='ExternalClassCDC5E50CB9114FD6B5F4D3E1529C20C5'><p>\n      see <a class='external' href='http&#58;//www.vfsglobal.com/australia/' target='_blank'>VFS Global</a></p></div>"
    },
    {
        "coordinates": [
            23.719739,
            38.001124
        ],
        "country": "Greece",
        "name": "Dr Chrissoula Gavalakis, Concierge Medical Services",
        "website": ""
    },
    {
        "coordinates": [
            23.798196,
            38.006458
        ],
        "country": "Greece",
        "name": "Metropolitan General",
        "website": ""
    },
    {
        "coordinates": [
            22.945772,
            40.635197
        ],
        "country": "Greece",
        "name": "Private Practice of Dr Dimitra Diamantopoulou",
        "website": ""
    },
    {
        "coordinates": [
            23.772638,
            37.989054
        ],
        "country": "Greece",
        "name": "Police check - Greece",
        "website": "<div class='ExternalClass7BF65CBD7B734C95BFA5323E8837F1A6'><p> \n      <a class='external' href='http&#58;//www.ncris.gov.gr/' target='_blank'>http&#58;//www.ncris.gov.gr</a><br></p></div>"
    },
    {
        "coordinates": [
            -42.604303,
            71.706936
        ],
        "country": "Greenland",
        "name": "Greenland",
        "website": ""
    },
    {
        "coordinates": [
            -42,
            68
        ],
        "country": "Greenland",
        "name": "No panel physicians",
        "website": ""
    },
    {
        "coordinates": [
            -61.678999999,
            12.1165
        ],
        "country": "Grenada",
        "name": "Grenada",
        "website": ""
    },
    {
        "coordinates": [
            -61.683528,
            12.132763
        ],
        "country": "Grenada",
        "name": "No panel physicians",
        "website": ""
    },
    {
        "coordinates": [
            -61.752525,
            12.051859
        ],
        "country": "Grenada",
        "name": "Police check - Grenada",
        "website": "<div class='ExternalClassC317FA9772B94FC7BA195255A42EF752'><p> \n      <a class='external' href='http&#58;//www.rgpf.gd/' target='_blank'>http&#58;//www.rgpf.gd/</a></p></div>"
    },
    {
        "coordinates": [
            -61.550999999,
            16.265
        ],
        "country": "Guadeloupe",
        "name": "Guadeloupe",
        "website": ""
    },
    {
        "coordinates": [
            -61.585042,
            16.242434
        ],
        "country": "Guadeloupe",
        "name": "No panel physicians",
        "website": ""
    },
    {
        "coordinates": [
            -61.653805,
            16.129629
        ],
        "country": "Guadeloupe",
        "name": "Police check - Guadeloupe",
        "website": "<div class='ExternalClass279E0F3C6EEA4DBAB02D7C6192F3D33A'><p> \n      <a class='external' href='http&#58;//www.cjn.justice.gouv.fr/' target='_blank'>http&#58;//www.cjn.justice.gouv.fr</a><br></p></div>"
    },
    {
        "coordinates": [
            144.793730999,
            13.444304
        ],
        "country": "Guam",
        "name": "Guam",
        "website": ""
    },
    {
        "coordinates": [
            144.800812,
            13.485298
        ],
        "country": "Guam",
        "name": "Health Services of the Pacific",
        "website": ""
    },
    {
        "coordinates": [
            144.742593,
            13.476947
        ],
        "country": "Guam",
        "name": "Police check - Guam",
        "website": ""
    },
    {
        "coordinates": [
            -90.23075899,
            15.783471
        ],
        "country": "Guatemala",
        "name": "Guatemala",
        "website": ""
    },
    {
        "coordinates": [
            -90.506882,
            14.634915
        ],
        "country": "Guatemala",
        "name": "Hospital Herrera Llerandi",
        "website": ""
    },
    {
        "coordinates": [
            -90.506882,
            14.634915
        ],
        "country": "Guatemala",
        "name": "Police check - Guatemala",
        "website": "<div class='ExternalClass3ACFE578F08242FCAA74A932D102D92F'><p> \n      <a class='external' href='http&#58;//www.oj.gob.gt/' target='_blank'>http&#58;//www.oj.gob.gt/</a><br></p></div>"
    },
    {
        "coordinates": [
            -9.69664499,
            9.945587
        ],
        "country": "Guinea",
        "name": "Guinea",
        "website": ""
    },
    {
        "coordinates": [
            -13.578401,
            9.641185
        ],
        "country": "Guinea",
        "name": "Clinique Pasteur",
        "website": ""
    },
    {
        "coordinates": [
            -13.578401,
            9.641185
        ],
        "country": "Guinea",
        "name": "International Organisation for Migration (IOM) - Conakry",
        "website": ""
    },
    {
        "coordinates": [
            -13.578401,
            9.641185
        ],
        "country": "Guinea",
        "name": "Police check - Guinea",
        "website": ""
    },
    {
        "coordinates": [
            -15.180413,
            11.803749
        ],
        "country": "Guinea-Bissau",
        "name": "Guinea-Bissau",
        "website": ""
    },
    {
        "coordinates": [
            -15,
            12
        ],
        "country": "Guinea-Bissau",
        "name": "No panel physicians",
        "website": ""
    },
    {
        "coordinates": [
            -15.617794,
            11.881655
        ],
        "country": "Guinea-Bissau",
        "name": "Police check - Guinea-Bissau",
        "website": ""
    },
    {
        "coordinates": [
            -58.93018,
            4.860416
        ],
        "country": "Guyana",
        "name": "Guyana",
        "website": ""
    },
    {
        "coordinates": [
            -58.157705,
            6.816237
        ],
        "country": "Guyana",
        "name": "Dr Iris Chin See",
        "website": ""
    },
    {
        "coordinates": [
            -58.155125,
            6.801279
        ],
        "country": "Guyana",
        "name": "Police check - Guyana",
        "website": ""
    },
    {
        "coordinates": [
            -72.285215,
            18.971187
        ],
        "country": "Haiti",
        "name": "Haiti",
        "website": ""
    },
    {
        "coordinates": [
            -72.307433,
            18.594395
        ],
        "country": "Haiti",
        "name": "Centre de Prevention Medicale",
        "website": ""
    },
    {
        "coordinates": [
            -72.307433,
            18.594395
        ],
        "country": "Haiti",
        "name": "Police check - Haiti",
        "website": ""
    },
    {
        "coordinates": [
            12.453389,
            41.902916
        ],
        "country": "Holy See, The",
        "name": "Holy See",
        "website": ""
    },
    {
        "coordinates": [
            -86.2419049999,
            15.199999
        ],
        "country": "Honduras",
        "name": "Honduras",
        "website": ""
    },
    {
        "coordinates": [
            -88.035362,
            15.48713
        ],
        "country": "Honduras",
        "name": "Dr Fernando Molina",
        "website": ""
    },
    {
        "coordinates": [
            -87.199254,
            14.072985
        ],
        "country": "Honduras",
        "name": "Police check - Honduras",
        "website": ""
    },
    {
        "coordinates": [
            114.1095,
            22.3964
        ],
        "country": "Hong Kong (SAR of China)",
        "name": "Hong Kong (SAR of China)",
        "website": ""
    },
    {
        "coordinates": [
            114.208168,
            22.291698
        ],
        "country": "Hong Kong (SAR of China)",
        "name": "VFS Global - Hong Kong",
        "website": "<div class='ExternalClass9A45F9A6E9984CF5897E6645BFC8A667'><p>See \n      <a class='external' href='http&#58;//www.vfsglobal.com/Australia/hongkong/' target='_blank'>VFS Global</a><br></p></div>"
    },
    {
        "coordinates": [
            114.175612,
            22.281093
        ],
        "country": "Hong Kong (SAR of China)",
        "name": "Australian Consulate-General \u2013 Hong Kong",
        "website": "<div class='ExternalClass7A5F74AF9AF74B94903769909985F2AD'><p> \n      <a class='external' href='http&#58;//www.hongkong.china.embassy.gov.au/' target='_blank'>http&#58;//www.hongkong.china.embassy.gov.au</a><br></p></div>"
    },
    {
        "coordinates": [
            114.156615,
            22.283953
        ],
        "country": "Hong Kong (SAR of China)",
        "name": "Sun Medical Centre \u2044 UMP Medical Centre (Central)",
        "website": "<div class='ExternalClassE1168CE076644E10A6C92D4DA026560D'><p> \n      <a class='external' href='http&#58;//www1.ump.com.hk/en/' target='_blank'>http&#58;//www1.ump.com.hk/en/</a></p></div>"
    },
    {
        "coordinates": [
            114.169806,
            22.319197
        ],
        "country": "Hong Kong (SAR of China)",
        "name": "Quality Healthcare Medical Center \u2013 Mongkok",
        "website": "<div class='ExternalClassC8F2667F09E047B5822D7A9EF4C72466'><p> \n      <a class='external' href='http&#58;//www.qhms.com/' target='_blank'>http&#58;//www.qhms.com</a><br></p></div>"
    },
    {
        "coordinates": [
            114.171942,
            22.304822
        ],
        "country": "Hong Kong (SAR of China)",
        "name": "Sun \u2044 UMP Medical Centre - Jordan",
        "website": "<div class='ExternalClass84DA08FFEEF94F12A007543B4501BBD7'><p> \n      <a class='external' href='http&#58;//www1.ump.com.hk/en/' target='_blank'>http&#58;//www1.ump.com.hk/en/</a><br></p></div>"
    },
    {
        "coordinates": [
            114.167995,
            22.278282
        ],
        "country": "Hong Kong (SAR of China)",
        "name": "Police check - Hong Kong (SAR of China)",
        "website": "<div class='ExternalClassBC8C181AC0004DDEA392FD43908269E7'><p>\n      <a class='external' href='http&#58;//www.info.gov.hk/police' target='_blank'>http&#58;//www.info.gov.hk/police</a><br></p></div>"
    },
    {
        "coordinates": [
            19.5033041,
            47.162494
        ],
        "country": "Hungary",
        "name": "Hungary",
        "website": ""
    },
    {
        "coordinates": [
            19.005381,
            47.511016
        ],
        "country": "Hungary",
        "name": "Semmelweis University Kutvolgyi Clinical Center",
        "website": ""
    },
    {
        "coordinates": [
            19.062973,
            47.529229
        ],
        "country": "Hungary",
        "name": "Police check - Hungary",
        "website": "<div class='ExternalClassF6550D70E41B4CCBABF34FE0FDF1DA60'><p> \n      <a class='external' href='http&#58;//www.nyilvantarto.hu/en/' target='_blank'>http&#58;//www.nyilvantarto.hu/en/</a><br></p></div>"
    },
    {
        "coordinates": [
            -19.020836,
            64.963051
        ],
        "country": "Iceland",
        "name": "Iceland",
        "website": ""
    },
    {
        "coordinates": [
            -21.868157,
            64.133997
        ],
        "country": "Iceland",
        "name": "Family medical center",
        "website": ""
    },
    {
        "coordinates": [
            -21.883258,
            64.103302
        ],
        "country": "Iceland",
        "name": "Police check - Iceland",
        "website": "<div class='ExternalClass8797977B0F51412EA177482F34CE5627'><p> \n      <a class='external' href='http&#58;//www.syslumadur.is/' target='_blank'>http&#58;//www.syslumadur.is</a><br></p></div>"
    },
    {
        "coordinates": [
            20.593,
            20.5937
        ],
        "country": "India",
        "name": "India",
        "website": ""
    },
    {
        "coordinates": [
            72.570169,
            23.030452
        ],
        "country": "India",
        "name": "VFS Global - Ahmedabad, Bangalore, Chandigarh, Chennai, Cochin, Hyderabad, Jalandhar, Kolkata, Mumbai (North), Mumbai (South), New Delhi, Pune",
        "website": "<div class='ExternalClass8AD00347FFDE4E51B6960D8674C22B75'><p>See \n      <a class='external' href='http&#58;//www.vfsglobal.com/Australia/India/' target='_blank'>VFS Global</a></p></div>"
    },
    {
        "coordinates": [
            77.191377,
            28.596785
        ],
        "country": "India",
        "name": "Australian High Commission - New Delhi",
        "website": "<div class='ExternalClassA1DB934903534999A21B257EAA6DD090'>\n   <a class='external' href='http&#58;//www.india.embassy.gov.au/' target='_blank'>http&#58;//www.india.embassy.gov.au/</a><br></div>"
    },
    {
        "coordinates": [
            72.626006,
            23.109509
        ],
        "country": "India",
        "name": "Apollo Hospitals - Ahmedabad",
        "website": ""
    },
    {
        "coordinates": [
            72.56079,
            23.045142
        ],
        "country": "India",
        "name": "KD Hospital",
        "website": ""
    },
    {
        "coordinates": [
            77.59679,
            12.983387
        ],
        "country": "India",
        "name": "Elbit Diagnostic Centre",
        "website": ""
    },
    {
        "coordinates": [
            77.59862,
            12.894823
        ],
        "country": "India",
        "name": "Fortis Hospital ",
        "website": ""
    },
    {
        "coordinates": [
            76.787505,
            30.753213
        ],
        "country": "India",
        "name": "National Medical and Dialysis Centre",
        "website": ""
    },
    {
        "coordinates": [
            80.25203,
            13.062374
        ],
        "country": "India",
        "name": "Apollo Hospitals - Chennai",
        "website": "<div class='ExternalClassCDE8D5BB79594BFAAD386BA8ABE9D9BD'><p>\n      <a class='external' href='http&#58;//chennai.apollohospitals.com/' target='_blank'>http&#58;//chennai.apollohospitals.com/</a>\u200b<br></p></div>"
    },
    {
        "coordinates": [
            78.43123,
            17.405646
        ],
        "country": "India",
        "name": "Centre for Migration Medicine",
        "website": "<div class='ExternalClassA9537B40AC244938908E7CF20CC23AED'><p>\n      <a class='external' href='http&#58;//migrationmedicine.com/' target='_blank'>http&#58;//migrationmedicine.com/</a></p></div>"
    },
    {
        "coordinates": [
            78.507007,
            17.424414
        ],
        "country": "India",
        "name": "GYD Diagnostics and Clinics",
        "website": "<div class='ExternalClass8CC02416BCFD46FCB8BD394268DC1C75'><p>\n      <a class='external' href='http&#58;//www.gydhealth.com/' target='_blank'>http&#58;//www.gydhealth.com</a>\u200b<br></p></div>"
    },